[
  {
    "name": "Australia",
    "code": "AU",
    "lat": -25.274398,
    "lon": 133.775136,
    "continent": "Oceania"
  },
  {
    "name": "New Zealand",
    "code": "NZ",
    "lat": -40.900557,
    "lon": 174.885971,
    "continent": "Oceania"
  },
  { "name": "Fiji", "code": "FJ", "lat": -16.578193, "lon": 179.414413, "continent": "Oceania" },
  {
    "name": "Papua New Guinea",
    "code": "PG",
    "lat": -6.314993,
    "lon": 143.95555,
    "continent": "Oceania"
  },
  {
    "name": "Solomon Islands",
    "code": "SB",
    "lat": -9.64571,
    "lon": 160.156194,
    "continent": "Oceania"
  },
  { "name": "Vanuatu", "code": "VU", "lat": -15.376706, "lon": 166.959158, "continent": "Oceania" },
  { "name": "Samoa", "code": "WS", "lat": -13.759029, "lon": -172.104629, "continent": "Oceania" },
  { "name": "Tonga", "code": "TO", "lat": -21.178986, "lon": -175.198242, "continent": "Oceania" },
  {
    "name": "Kiribati",
    "code": "KI",
    "lat": -3.370417,
    "lon": -168.734039,
    "continent": "Oceania"
  },
  { "name": "Tuvalu", "code": "TV", "lat": -7.109535, "lon": 177.64933, "continent": "Oceania" },
  { "name": "Palau", "code": "PW", "lat": 7.51498, "lon": 134.58252, "continent": "Oceania" },
  {
    "name": "Marshall Islands",
    "code": "MH",
    "lat": 7.131474,
    "lon": 171.184478,
    "continent": "Oceania"
  },
  {
    "name": "Micronesia",
    "code": "FM",
    "lat": 7.425554,
    "lon": 150.550812,
    "continent": "Oceania"
  },
  { "name": "Nauru", "code": "NR", "lat": -0.522778, "lon": 166.931503, "continent": "Oceania" },
  {
    "name": "Cook Islands",
    "code": "CK",
    "lat": -21.236736,
    "lon": -159.777671,
    "continent": "Oceania"
  },
  { "name": "Niue", "code": "NU", "lat": -19.054445, "lon": -169.867233, "continent": "Oceania" },
  {
    "name": "French Polynesia",
    "code": "PF",
    "lat": -17.679742,
    "lon": -149.406843,
    "continent": "Oceania"
  },
  {
    "name": "New Caledonia",
    "code": "NC",
    "lat": -20.904305,
    "lon": 165.618042,
    "continent": "Oceania"
  },
  {
    "name": "Wallis and Futuna",
    "code": "WF",
    "lat": -13.768752,
    "lon": -177.156097,
    "continent": "Oceania"
  },
  { "name": "Tokelau", "code": "TK", "lat": -8.967363, "lon": -171.855881, "continent": "Oceania" },
  {
    "name": "Northern Mariana Islands",
    "code": "MP",
    "lat": 17.33083,
    "lon": 145.38469,
    "continent": "Oceania"
  },
  { "name": "Guam", "code": "GU", "lat": 13.444304, "lon": 144.793731, "continent": "Oceania" },
  {
    "name": "American Samoa",
    "code": "AS",
    "lat": -14.270972,
    "lon": -170.132217,
    "continent": "Oceania"
  },
  {
    "name": "Christmas Island",
    "code": "CX",
    "lat": -10.447525,
    "lon": 105.690449,
    "continent": "Oceania"
  },
  {
    "name": "Cocos (Keeling) Islands",
    "code": "CC",
    "lat": -12.164165,
    "lon": 96.870956,
    "continent": "Oceania"
  },
  {
    "name": "Norfolk Island",
    "code": "NF",
    "lat": -29.040835,
    "lon": 167.954712,
    "continent": "Oceania"
  },
  {
    "name": "Pitcairn Islands",
    "code": "PN",
    "lat": -24.703615,
    "lon": -127.439308,
    "continent": "Oceania"
  },
  { "name": "Afghanistan", "code": "AF", "lat": 33.93911, "lon": 67.709953, "continent": "Asia" },
  { "name": "Armenia", "code": "AM", "lat": 40.069099, "lon": 45.038189, "continent": "Asia" },
  { "name": "Azerbaijan", "code": "AZ", "lat": 40.143105, "lon": 47.576927, "continent": "Asia" },
  { "name": "Bahrain", "code": "BH", "lat": 25.930414, "lon": 50.637772, "continent": "Asia" },
  { "name": "Bangladesh", "code": "BD", "lat": 23.684994, "lon": 90.356331, "continent": "Asia" },
  { "name": "Bhutan", "code": "BT", "lat": 27.514162, "lon": 90.433601, "continent": "Asia" },
  { "name": "Brunei", "code": "BN", "lat": 4.535277, "lon": 114.727669, "continent": "Asia" },
  { "name": "Cambodia", "code": "KH", "lat": 12.565679, "lon": 104.990963, "continent": "Asia" },
  { "name": "China", "code": "CN", "lat": 35.86166, "lon": 104.195397, "continent": "Asia" },
  { "name": "Cyprus", "code": "CY", "lat": 35.126413, "lon": 33.429859, "continent": "Asia" },
  { "name": "Georgia", "code": "GE", "lat": 42.315407, "lon": 43.356892, "continent": "Asia" },
  { "name": "India", "code": "IN", "lat": 20.593684, "lon": 78.96288, "continent": "Asia" },
  { "name": "Indonesia", "code": "ID", "lat": -0.789275, "lon": 113.921327, "continent": "Asia" },
  { "name": "Iran", "code": "IR", "lat": 32.427908, "lon": 53.688046, "continent": "Asia" },
  { "name": "Iraq", "code": "IQ", "lat": 33.223191, "lon": 43.679291, "continent": "Asia" },
  { "name": "Israel", "code": "IL", "lat": 31.046051, "lon": 34.851612, "continent": "Asia" },
  { "name": "Japan", "code": "JP", "lat": 36.204824, "lon": 138.252924, "continent": "Asia" },
  { "name": "Jordan", "code": "JO", "lat": 30.585164, "lon": 36.238414, "continent": "Asia" },
  { "name": "Kazakhstan", "code": "KZ", "lat": 48.019573, "lon": 66.923684, "continent": "Asia" },
  { "name": "Kuwait", "code": "KW", "lat": 29.31166, "lon": 47.481766, "continent": "Asia" },
  { "name": "Kyrgyzstan", "code": "KG", "lat": 41.20438, "lon": 74.766098, "continent": "Asia" },
  { "name": "Laos", "code": "LA", "lat": 19.85627, "lon": 102.495496, "continent": "Asia" },
  { "name": "Lebanon", "code": "LB", "lat": 33.854721, "lon": 35.862285, "continent": "Asia" },
  { "name": "Macau", "code": "MO", "lat": 22.198745, "lon": 113.543873, "continent": "Asia" },
  { "name": "Malaysia", "code": "MY", "lat": 4.210484, "lon": 101.975766, "continent": "Asia" },
  { "name": "Maldives", "code": "MV", "lat": 3.202778, "lon": 73.22068, "continent": "Asia" },
  { "name": "Mongolia", "code": "MN", "lat": 46.862496, "lon": 103.846656, "continent": "Asia" },
  {
    "name": "Myanmar [Burma]",
    "code": "MM",
    "lat": 21.913965,
    "lon": 95.956223,
    "continent": "Asia"
  },
  { "name": "Nepal", "code": "NP", "lat": 28.394857, "lon": 84.124008, "continent": "Asia" },
  { "name": "North Korea", "code": "KP", "lat": 40.339852, "lon": 127.510093, "continent": "Asia" },
  { "name": "Oman", "code": "OM", "lat": 21.512583, "lon": 55.923255, "continent": "Asia" },
  { "name": "Pakistan", "code": "PK", "lat": 30.375321, "lon": 69.345116, "continent": "Asia" },
  {
    "name": "Palestinian Territories",
    "code": "PS",
    "lat": 31.952162,
    "lon": 35.233154,
    "continent": "Asia"
  },
  { "name": "Philippines", "code": "PH", "lat": 12.879721, "lon": 121.774017, "continent": "Asia" },
  { "name": "Qatar", "code": "QA", "lat": 25.354826, "lon": 51.183884, "continent": "Asia" },
  { "name": "Saudi Arabia", "code": "SA", "lat": 23.885942, "lon": 45.079162, "continent": "Asia" },
  { "name": "Singapore", "code": "SG", "lat": 1.352083, "lon": 103.819836, "continent": "Asia" },
  { "name": "South Korea", "code": "KR", "lat": 35.907757, "lon": 127.766922, "continent": "Asia" },
  { "name": "Sri Lanka", "code": "LK", "lat": 7.873054, "lon": 80.771797, "continent": "Asia" },
  { "name": "Syria", "code": "SY", "lat": 34.802075, "lon": 38.996815, "continent": "Asia" },
  { "name": "Taiwan", "code": "TW", "lat": 23.69781, "lon": 120.960515, "continent": "Asia" },
  { "name": "Tajikistan", "code": "TJ", "lat": 38.861034, "lon": 71.276093, "continent": "Asia" },
  { "name": "Thailand", "code": "TH", "lat": 15.870032, "lon": 100.992541, "continent": "Asia" },
  { "name": "Timor-Leste", "code": "TL", "lat": -8.874217, "lon": 125.727539, "continent": "Asia" },
  {
    "name": "Turkey",
    "code": "TR",
    "lat": 38.963745,
    "lon": 35.243322,
    "continent": "Europe/Asia"
  },
  { "name": "Turkmenistan", "code": "TM", "lat": 38.969719, "lon": 59.556278, "continent": "Asia" },
  {
    "name": "United Arab Emirates",
    "code": "AE",
    "lat": 23.424076,
    "lon": 53.847818,
    "continent": "Asia"
  },
  { "name": "Uzbekistan", "code": "UZ", "lat": 41.377491, "lon": 64.585262, "continent": "Asia" },
  { "name": "Vietnam", "code": "VN", "lat": 14.058324, "lon": 108.277199, "continent": "Asia" },
  { "name": "Yemen", "code": "YE", "lat": 15.552727, "lon": 48.516388, "continent": "Asia" },
  { "name": "Hong Kong", "code": "HK", "lat": 22.396428, "lon": 114.109497, "continent": "Asia" },
  {
    "name": "Antigua and Barbuda",
    "code": "AG",
    "lat": 17.060816,
    "lon": -61.796428,
    "continent": "North America"
  },
  {
    "name": "Bahamas",
    "code": "BS",
    "lat": 25.03428,
    "lon": -77.39628,
    "continent": "North America"
  },
  {
    "name": "Barbados",
    "code": "BB",
    "lat": 13.193887,
    "lon": -59.543198,
    "continent": "North America"
  },
  {
    "name": "Belize",
    "code": "BZ",
    "lat": 17.189877,
    "lon": -88.49765,
    "continent": "North America"
  },
  {
    "name": "Canada",
    "code": "CA",
    "lat": 56.130366,
    "lon": -106.346771,
    "continent": "North America"
  },
  {
    "name": "Costa Rica",
    "code": "CR",
    "lat": 9.748917,
    "lon": -83.753428,
    "continent": "North America"
  },
  {
    "name": "Cuba",
    "code": "CU",
    "lat": 21.521757,
    "lon": -77.781167,
    "continent": "North America"
  },
  {
    "name": "Dominica",
    "code": "DM",
    "lat": 15.414999,
    "lon": -61.370976,
    "continent": "North America"
  },
  {
    "name": "Dominican Republic",
    "code": "DO",
    "lat": 18.735693,
    "lon": -70.162651,
    "continent": "North America"
  },
  {
    "name": "El Salvador",
    "code": "SV",
    "lat": 13.794185,
    "lon": -88.89653,
    "continent": "North America"
  },
  {
    "name": "Grenada",
    "code": "GD",
    "lat": 12.262776,
    "lon": -61.604171,
    "continent": "North America"
  },
  {
    "name": "Guatemala",
    "code": "GT",
    "lat": 15.783471,
    "lon": -90.230759,
    "continent": "North America"
  },
  {
    "name": "Haiti",
    "code": "HT",
    "lat": 18.971187,
    "lon": -72.285215,
    "continent": "North America"
  },
  {
    "name": "Honduras",
    "code": "HN",
    "lat": 15.199999,
    "lon": -86.241905,
    "continent": "North America"
  },
  {
    "name": "Jamaica",
    "code": "JM",
    "lat": 18.109581,
    "lon": -77.297508,
    "continent": "North America"
  },
  {
    "name": "Mexico",
    "code": "MX",
    "lat": 23.634501,
    "lon": -102.552784,
    "continent": "North America"
  },
  {
    "name": "Nicaragua",
    "code": "NI",
    "lat": 12.865416,
    "lon": -85.207229,
    "continent": "North America"
  },
  {
    "name": "Panama",
    "code": "PA",
    "lat": 8.537981,
    "lon": -80.782127,
    "continent": "North America"
  },
  {
    "name": "Saint Kitts and Nevis",
    "code": "KN",
    "lat": 17.357822,
    "lon": -62.782998,
    "continent": "North America"
  },
  {
    "name": "Saint Lucia",
    "code": "LC",
    "lat": 13.909444,
    "lon": -60.978893,
    "continent": "North America"
  },
  {
    "name": "Saint Vincent and the Grenadines",
    "code": "VC",
    "lat": 12.984305,
    "lon": -61.287228,
    "continent": "North America"
  },
  {
    "name": "Trinidad and Tobago",
    "code": "TT",
    "lat": 10.691803,
    "lon": -61.222503,
    "continent": "North America"
  },
  {
    "name": "United States",
    "code": "US",
    "lat": 37.09024,
    "lon": -95.712891,
    "continent": "North America"
  },
  {
    "name": "Puerto Rico",
    "code": "PR",
    "lat": 18.220833,
    "lon": -66.590149,
    "continent": "North America"
  },
  {
    "name": "Greenland",
    "code": "GL",
    "lat": 71.706936,
    "lon": -42.604303,
    "continent": "North America"
  },
  {
    "name": "Bermuda",
    "code": "BM",
    "lat": 32.321384,
    "lon": -64.75737,
    "continent": "North America"
  },
  {
    "name": "Cayman Islands",
    "code": "KY",
    "lat": 19.513469,
    "lon": -80.566956,
    "continent": "North America"
  },
  {
    "name": "Guadeloupe",
    "code": "GP",
    "lat": 16.995971,
    "lon": -62.067641,
    "continent": "North America"
  },
  {
    "name": "Martinique",
    "code": "MQ",
    "lat": 14.641528,
    "lon": -61.024174,
    "continent": "North America"
  },
  {
    "name": "Montserrat",
    "code": "MS",
    "lat": 16.742498,
    "lon": -62.187366,
    "continent": "North America"
  },
  {
    "name": "Saint Pierre and Miquelon",
    "code": "PM",
    "lat": 46.941936,
    "lon": -56.27111,
    "continent": "North America"
  },
  {
    "name": "Aruba",
    "code": "AW",
    "lat": 12.52111,
    "lon": -69.968338,
    "continent": "North America"
  },
  {
    "name": "Netherlands Antilles",
    "code": "AN",
    "lat": 12.226079,
    "lon": -69.060087,
    "continent": "North America"
  },
  {
    "name": "Anguilla",
    "code": "AI",
    "lat": 18.220554,
    "lon": -63.068615,
    "continent": "North America"
  },
  {
    "name": "British Virgin Islands",
    "code": "VG",
    "lat": 18.420695,
    "lon": -64.639968,
    "continent": "North America"
  },
  {
    "name": "U.S. Virgin Islands",
    "code": "VI",
    "lat": 18.335765,
    "lon": -64.896335,
    "continent": "North America"
  },
  { "name": "Gaza Strip", "code": "GZ", "lat": 31.354676, "lon": 34.308825, "continent": "Asia" },
  {
    "name": "Turks and Caicos Islands",
    "code": "TC",
    "lat": 21.694025,
    "lon": -71.797928,
    "continent": "North America"
  },
  { "name": "Albania", "code": "AL", "lat": 41.153332, "lon": 20.168331, "continent": "Europe" },
  { "name": "Andorra", "code": "AD", "lat": 42.546245, "lon": 1.601554, "continent": "Europe" },
  { "name": "Austria", "code": "AT", "lat": 47.516231, "lon": 14.550072, "continent": "Europe" },
  { "name": "Belarus", "code": "BY", "lat": 53.709807, "lon": 27.953389, "continent": "Europe" },
  { "name": "Belgium", "code": "BE", "lat": 50.503887, "lon": 4.469936, "continent": "Europe" },
  {
    "name": "Bosnia and Herzegovina",
    "code": "BA",
    "lat": 43.915886,
    "lon": 17.679076,
    "continent": "Europe"
  },
  { "name": "Bulgaria", "code": "BG", "lat": 42.733883, "lon": 25.48583, "continent": "Europe" },
  { "name": "Croatia", "code": "HR", "lat": 45.1, "lon": 15.2, "continent": "Europe" },
  {
    "name": "Czech Republic",
    "code": "CZ",
    "lat": 49.817492,
    "lon": 15.472962,
    "continent": "Europe"
  },
  { "name": "Denmark", "code": "DK", "lat": 56.26392, "lon": 9.501785, "continent": "Europe" },
  { "name": "Estonia", "code": "EE", "lat": 58.595272, "lon": 25.013607, "continent": "Europe" },
  { "name": "Finland", "code": "FI", "lat": 61.92411, "lon": 25.748151, "continent": "Europe" },
  { "name": "France", "code": "FR", "lat": 46.227638, "lon": 2.213749, "continent": "Europe" },
  { "name": "Germany", "code": "DE", "lat": 51.165691, "lon": 10.451526, "continent": "Europe" },
  { "name": "Greece", "code": "GR", "lat": 39.074208, "lon": 21.824312, "continent": "Europe" },
  { "name": "Hungary", "code": "HU", "lat": 47.162494, "lon": 19.503304, "continent": "Europe" },
  { "name": "Iceland", "code": "IS", "lat": 64.963051, "lon": -19.020835, "continent": "Europe" },
  { "name": "Ireland", "code": "IE", "lat": 53.41291, "lon": -8.24389, "continent": "Europe" },
  { "name": "Italy", "code": "IT", "lat": 41.87194, "lon": 12.56738, "continent": "Europe" },
  { "name": "Kosovo", "code": "XK", "lat": 42.602636, "lon": 20.902977, "continent": "Europe" },
  { "name": "Latvia", "code": "LV", "lat": 56.879635, "lon": 24.603189, "continent": "Europe" },
  { "name": "Liechtenstein", "code": "LI", "lat": 47.166, "lon": 9.555373, "continent": "Europe" },
  { "name": "Lithuania", "code": "LT", "lat": 55.169438, "lon": 23.881275, "continent": "Europe" },
  { "name": "Luxembourg", "code": "LU", "lat": 49.815273, "lon": 6.129583, "continent": "Europe" },
  {
    "name": "Macedonia [FYROM]",
    "code": "MK",
    "lat": 41.608635,
    "lon": 21.745275,
    "continent": "Europe"
  },
  { "name": "Malta", "code": "MT", "lat": 35.937496, "lon": 14.375416, "continent": "Europe" },
  { "name": "Moldova", "code": "MD", "lat": 47.411631, "lon": 28.369885, "continent": "Europe" },
  { "name": "Monaco", "code": "MC", "lat": 43.750298, "lon": 7.412841, "continent": "Europe" },
  { "name": "Montenegro", "code": "ME", "lat": 42.708678, "lon": 19.37439, "continent": "Europe" },
  { "name": "Netherlands", "code": "NL", "lat": 52.132633, "lon": 5.291266, "continent": "Europe" },
  { "name": "Norway", "code": "NO", "lat": 60.472024, "lon": 8.468946, "continent": "Europe" },
  { "name": "Poland", "code": "PL", "lat": 51.919438, "lon": 19.145136, "continent": "Europe" },
  { "name": "Portugal", "code": "PT", "lat": 39.399872, "lon": -8.224454, "continent": "Europe" },
  { "name": "Romania", "code": "RO", "lat": 45.943161, "lon": 24.96676, "continent": "Europe" },
  {
    "name": "Russia",
    "code": "RU",
    "lat": 61.52401,
    "lon": 105.318756,
    "continent": "Europe/Asia"
  },
  { "name": "San Marino", "code": "SM", "lat": 43.94236, "lon": 12.457777, "continent": "Europe" },
  { "name": "Serbia", "code": "RS", "lat": 44.016521, "lon": 21.005859, "continent": "Europe" },
  { "name": "Slovakia", "code": "SK", "lat": 48.669026, "lon": 19.699024, "continent": "Europe" },
  { "name": "Slovenia", "code": "SI", "lat": 46.151241, "lon": 14.995463, "continent": "Europe" },
  { "name": "Spain", "code": "ES", "lat": 40.463667, "lon": -3.74922, "continent": "Europe" },
  { "name": "Sweden", "code": "SE", "lat": 60.128161, "lon": 18.643501, "continent": "Europe" },
  { "name": "Switzerland", "code": "CH", "lat": 46.818188, "lon": 8.227512, "continent": "Europe" },
  {
    "name": "United Kingdom",
    "code": "GB",
    "lat": 55.378051,
    "lon": -3.435973,
    "continent": "Europe"
  },
  {
    "name": "Vatican City",
    "code": "VA",
    "lat": 41.902916,
    "lon": 12.453389,
    "continent": "Europe"
  },
  { "name": "Jersey", "code": "JE", "lat": 49.214439, "lon": -2.13125, "continent": "Europe" },
  { "name": "Guernsey", "code": "GG", "lat": 49.465691, "lon": -2.585278, "continent": "Europe" },
  {
    "name": "Isle of Man",
    "code": "IM",
    "lat": 54.236107,
    "lon": -4.548056,
    "continent": "Europe"
  },
  {
    "name": "Faroe Islands",
    "code": "FO",
    "lat": 61.892635,
    "lon": -6.911806,
    "continent": "Europe"
  },
  { "name": "Gibraltar", "code": "GI", "lat": 36.137741, "lon": -5.345374, "continent": "Europe" },
  { "name": "Algeria", "code": "DZ", "lat": 28.033886, "lon": 1.659626, "continent": "Africa" },
  { "name": "Angola", "code": "AO", "lat": -11.202692, "lon": 17.873887, "continent": "Africa" },
  { "name": "Benin", "code": "BJ", "lat": 9.30769, "lon": 2.315834, "continent": "Africa" },
  { "name": "Botswana", "code": "BW", "lat": -22.328474, "lon": 24.684866, "continent": "Africa" },
  {
    "name": "Burkina Faso",
    "code": "BF",
    "lat": 12.238333,
    "lon": -1.561593,
    "continent": "Africa"
  },
  { "name": "Burundi", "code": "BI", "lat": -3.373056, "lon": 29.918886, "continent": "Africa" },
  { "name": "Cameroon", "code": "CM", "lat": 7.369722, "lon": 12.354722, "continent": "Africa" },
  {
    "name": "Cape Verde",
    "code": "CV",
    "lat": 16.002082,
    "lon": -24.013197,
    "continent": "Africa"
  },
  {
    "name": "Central African Republic",
    "code": "CF",
    "lat": 6.611111,
    "lon": 20.939444,
    "continent": "Africa"
  },
  { "name": "Chad", "code": "TD", "lat": 15.454166, "lon": 18.732207, "continent": "Africa" },
  { "name": "Comoros", "code": "KM", "lat": -11.875001, "lon": 43.872219, "continent": "Africa" },
  {
    "name": "Congo [DRC]",
    "code": "CD",
    "lat": -4.038333,
    "lon": 21.758664,
    "continent": "Africa"
  },
  {
    "name": "Congo [Republic]",
    "code": "CG",
    "lat": -0.228021,
    "lon": 15.827659,
    "continent": "Africa"
  },
  {
    "name": "Côte d'Ivoire",
    "code": "CI",
    "lat": 7.539989,
    "lon": -5.54708,
    "continent": "Africa"
  },
  { "name": "Djibouti", "code": "DJ", "lat": 11.825138, "lon": 42.590275, "continent": "Africa" },
  { "name": "Egypt", "code": "EG", "lat": 26.820553, "lon": 30.802498, "continent": "Africa" },
  {
    "name": "Equatorial Guinea",
    "code": "GQ",
    "lat": 1.650801,
    "lon": 10.267895,
    "continent": "Africa"
  },
  { "name": "Eritrea", "code": "ER", "lat": 15.179384, "lon": 39.782334, "continent": "Africa" },
  { "name": "Ethiopia", "code": "ET", "lat": 9.145, "lon": 40.489673, "continent": "Africa" },
  { "name": "Gabon", "code": "GA", "lat": -0.803689, "lon": 11.609444, "continent": "Africa" },
  { "name": "Gambia", "code": "GM", "lat": 13.443182, "lon": -15.310139, "continent": "Africa" },
  { "name": "Ghana", "code": "GH", "lat": 7.946527, "lon": -1.023194, "continent": "Africa" },
  { "name": "Guinea", "code": "GN", "lat": 9.945587, "lon": -9.696645, "continent": "Africa" },
  {
    "name": "Guinea-Bissau",
    "code": "GW",
    "lat": 11.803749,
    "lon": -15.180413,
    "continent": "Africa"
  },
  { "name": "Kenya", "code": "KE", "lat": -0.023559, "lon": 37.906193, "continent": "Africa" },
  { "name": "Lesotho", "code": "LS", "lat": -29.609988, "lon": 28.233608, "continent": "Africa" },
  { "name": "Liberia", "code": "LR", "lat": 6.428055, "lon": -9.429499, "continent": "Africa" },
  { "name": "Libya", "code": "LY", "lat": 26.3351, "lon": 17.228331, "continent": "Africa" },
  {
    "name": "Madagascar",
    "code": "MG",
    "lat": -18.766947,
    "lon": 46.869107,
    "continent": "Africa"
  },
  { "name": "Malawi", "code": "MW", "lat": -13.254308, "lon": 34.301525, "continent": "Africa" },
  { "name": "Mali", "code": "ML", "lat": 17.570692, "lon": -3.996166, "continent": "Africa" },
  { "name": "Mauritania", "code": "MR", "lat": 21.00789, "lon": -10.940835, "continent": "Africa" },
  { "name": "Mauritius", "code": "MU", "lat": -20.348404, "lon": 57.552152, "continent": "Africa" },
  { "name": "Mayotte", "code": "YT", "lat": -12.8275, "lon": 45.166244, "continent": "Africa" },
  { "name": "Morocco", "code": "MA", "lat": 31.791702, "lon": -7.09262, "continent": "Africa" },
  {
    "name": "Mozambique",
    "code": "MZ",
    "lat": -18.665695,
    "lon": 35.529562,
    "continent": "Africa"
  },
  { "name": "Namibia", "code": "NA", "lat": -22.95764, "lon": 18.49041, "continent": "Africa" },
  { "name": "Niger", "code": "NE", "lat": 17.607789, "lon": 8.081666, "continent": "Africa" },
  { "name": "Nigeria", "code": "NG", "lat": 9.081999, "lon": 8.675277, "continent": "Africa" },
  { "name": "Réunion", "code": "RE", "lat": -21.115141, "lon": 55.536384, "continent": "Africa" },
  { "name": "Rwanda", "code": "RW", "lat": -1.940278, "lon": 29.873888, "continent": "Africa" },
  {
    "name": "Saint Helena",
    "code": "SH",
    "lat": -24.143474,
    "lon": -10.030696,
    "continent": "Africa"
  },
  {
    "name": "São Tomé and Príncipe",
    "code": "ST",
    "lat": 0.18636,
    "lon": 6.613081,
    "continent": "Africa"
  },
  { "name": "Senegal", "code": "SN", "lat": 14.497401, "lon": -14.452362, "continent": "Africa" },
  { "name": "Seychelles", "code": "SC", "lat": -4.679574, "lon": 55.491977, "continent": "Africa" },
  {
    "name": "Sierra Leone",
    "code": "SL",
    "lat": 8.460555,
    "lon": -11.779889,
    "continent": "Africa"
  },
  { "name": "Somalia", "code": "SO", "lat": 5.152149, "lon": 46.199616, "continent": "Africa" },
  {
    "name": "South Africa",
    "code": "ZA",
    "lat": -30.559482,
    "lon": 22.937506,
    "continent": "Africa"
  },
  { "name": "Sudan", "code": "SD", "lat": 12.862807, "lon": 30.217636, "continent": "Africa" },
  { "name": "Swaziland", "code": "SZ", "lat": -26.522503, "lon": 31.465866, "continent": "Africa" },
  { "name": "Tanzania", "code": "TZ", "lat": -6.369028, "lon": 34.888822, "continent": "Africa" },
  { "name": "Togo", "code": "TG", "lat": 8.619543, "lon": 0.824782, "continent": "Africa" },
  { "name": "Tunisia", "code": "TN", "lat": 33.886917, "lon": 9.537499, "continent": "Africa" },
  { "name": "Uganda", "code": "UG", "lat": 1.373333, "lon": 32.290275, "continent": "Africa" },
  { "name": "Zambia", "code": "ZM", "lat": -13.133897, "lon": 27.849332, "continent": "Africa" },
  { "name": "Zimbabwe", "code": "ZW", "lat": -19.015438, "lon": 29.154857, "continent": "Africa" },
  {
    "name": "Argentina",
    "code": "AR",
    "lat": -38.416097,
    "lon": -63.616672,
    "continent": "South America"
  },
  {
    "name": "Bolivia",
    "code": "BO",
    "lat": -16.290154,
    "lon": -63.588653,
    "continent": "South America"
  },
  {
    "name": "Brazil",
    "code": "BR",
    "lat": -14.235004,
    "lon": -51.92528,
    "continent": "South America"
  },
  {
    "name": "Chile",
    "code": "CL",
    "lat": -35.675147,
    "lon": -71.542969,
    "continent": "South America"
  },
  {
    "name": "Colombia",
    "code": "CO",
    "lat": 4.570868,
    "lon": -74.297333,
    "continent": "South America"
  },
  {
    "name": "Ecuador",
    "code": "EC",
    "lat": -1.831239,
    "lon": -78.183406,
    "continent": "South America"
  },
  {
    "name": "Guyana",
    "code": "GY",
    "lat": 4.860416,
    "lon": -58.93018,
    "continent": "South America"
  },
  {
    "name": "Paraguay",
    "code": "PY",
    "lat": -23.442503,
    "lon": -58.443832,
    "continent": "South America"
  },
  {
    "name": "Peru",
    "code": "PE",
    "lat": -9.189967,
    "lon": -75.015152,
    "continent": "South America"
  },
  {
    "name": "Suriname",
    "code": "SR",
    "lat": 3.919305,
    "lon": -56.027783,
    "continent": "South America"
  },
  {
    "name": "Uruguay",
    "code": "UY",
    "lat": -32.522779,
    "lon": -55.765835,
    "continent": "South America"
  },
  {
    "name": "Venezuela",
    "code": "VE",
    "lat": 6.42375,
    "lon": -66.58973,
    "continent": "South America"
  },
  {
    "name": "Falkland Islands [Islas Malvinas]",
    "code": "FK",
    "lat": -51.796253,
    "lon": -59.523613,
    "continent": "South America"
  },
  {
    "name": "French Guiana",
    "code": "GF",
    "lat": 3.933889,
    "lon": -53.125782,
    "continent": "South America"
  },
  { "name": "Russia", "code": "RU", "lat": 61.5, "lon": 105.3, "continent": "Europe/Asia" },
  { "name": "Mexico", "code": "MX", "lat": 23.6, "lon": -102.6, "continent": "North America" },
  { "name": "Indonesia", "code": "ID", "lat": -2.5, "lon": 118.0, "continent": "Asia" },
  { "name": "South Korea", "code": "KR", "lat": 36.5, "lon": 127.9, "continent": "Asia" },
  { "name": "Turkey", "code": "TR", "lat": 38.9, "lon": 35.2, "continent": "Europe/Asia" },
  { "name": "Sweden", "code": "SE", "lat": 60.1, "lon": 18.6, "continent": "Europe" },
  { "name": "Norway", "code": "NO", "lat": 60.5, "lon": 8.5, "continent": "Europe" },
  { "name": "Finland", "code": "FI", "lat": 64.0, "lon": 26.0, "continent": "Europe" },
  { "name": "Poland", "code": "PL", "lat": 52.1, "lon": 19.1, "continent": "Europe" },
  { "name": "Greece", "code": "GR", "lat": 39.1, "lon": 21.8, "continent": "Europe" },
  { "name": "Chile", "code": "CL", "lat": -35.7, "lon": -71.5, "continent": "South America" },
  { "name": "Peru", "code": "PE", "lat": -9.2, "lon": -75.0, "continent": "South America" },
  {
    "name": "Antarctica",
    "code": "AQ",
    "lat": -75.250973,
    "lon": -0.071389,
    "continent": "Antarctica"
  },
  {
    "name": "Bouvet Island",
    "code": "BV",
    "lat": -54.423199,
    "lon": 3.413194,
    "continent": "Antarctica"
  },
  {
    "name": "French Southern Territories",
    "code": "TF",
    "lat": -49.280366,
    "lon": 69.348557,
    "continent": "Antarctica"
  },
  {
    "name": "Heard Island and McDonald Islands",
    "code": "HM",
    "lat": -53.08181,
    "lon": 73.504158,
    "continent": "Antarctica"
  },
  {
    "name": "South Georgia and the South Sandwich Islands",
    "code": "GS",
    "lat": -54.429579,
    "lon": -36.587909,
    "continent": "Antarctica"
  },
  {
    "name": "Western Sahara",
    "code": "EH",
    "lat": 24.215527,
    "lon": -12.885834,
    "continent": "Africa"
  },
  {
    "name": "U.S. Minor Outlying Islands",
    "code": "UM",
    "lat": null,
    "lon": null,
    "continent": "Oceania/North America"
  },
  {
    "name": "Palestinian Territories",
    "code": "PS",
    "lat": 31.952162,
    "lon": 35.233154,
    "continent": "Asia"
  },
  { "name": "Gaza Strip", "code": "GZ", "lat": 31.354676, "lon": 34.308825, "continent": "Asia" },
  {
    "name": "Svalbard and Jan Mayen",
    "code": "SJ",
    "lat": 77.553604,
    "lon": 23.670272,
    "continent": "Europe"
  }
]
